{
    "type": "FeatureCollection",
    "features": [
        {
            "type": "Feature",
            "geometry": {
                "type": "Point",
                "coordinates": [-0.0722, 51.5152]
            },
            "properties": {
                "id": "curated/aldgate-east-tube-station",
                "name": "Aldgate East tube station"
            }
        },
        {
            "type": "Feature",
            "geometry": {
                "type": "Point",
                "coordinates": [-0.076, 51.514]
            },
            "properties": {
                "id": "curated/aldgate-tube-station",
                "name": "Aldgate tube station"
            }
        },
        {
            "type": "Feature",
            "geometry": {
                "type": "Point",
                "coordinates": [-0.106, 51.532]
            },
            "properties": {
                "id": "curated/angel-tube-station",
                "name": "Angel tube station"
            }
        },
        {
            "type": "Feature",
            "geometry": {
                "type": "Point",
                "coordinates": [-0.157, 51.522]
            },
            "properties": {
                "id": "curated/baker-street-tube-station",
                "name": "Baker Street tube station"
            }
        },
        {
            "type": "Feature",
            "geometry": {
                "type": "Point",
                "coordinates": [-0.088, 51.513]
            },
            "properties": {
                "id": "curated/bank-and-monument-stations",
                "name": "Bank and Monument stations"
            }
        },
        {
            "type": "Feature",
            "geometry": {
                "type": "Point",
                "coordinates": [-0.0977, 51.5202]
            },
            "properties": {
                "id": "curated/barbican-tube-station",
                "name": "Barbican tube station"
            }
        },
        {
            "type": "Feature",
            "geometry": {
                "type": "Point",
                "coordinates": [-0.142, 51.4795]
            },
            "properties": {
                "id": "curated/battersea-power-station-tube-station",
                "name": "Battersea Power Station tube station"
            }
        },
        {
            "type": "Feature",
            "geometry": {
                "type": "Point",
                "coordinates": [-0.188, 51.512]
            },
            "properties": {
                "id": "curated/bayswater-tube-station",
                "name": "Bayswater tube station"
            }
        },
        {
            "type": "Feature",
            "geometry": {
                "type": "Point",
                "coordinates": [-0.103, 51.5116]
            },
            "properties": {
                "id": "curated/blackfriars-station",
                "name": "Blackfriars station"
            }
        },
        {
            "type": "Feature",
            "geometry": {
                "type": "Point",
                "coordinates": [-0.15, 51.514]
            },
            "properties": {
                "id": "curated/bond-street-station",
                "name": "Bond Street station"
            }
        },
        {
            "type": "Feature",
            "geometry": {
                "type": "Point",
                "coordinates": [-0.093, 51.501]
            },
            "properties": {
                "id": "curated/borough-tube-station",
                "name": "Borough tube station"
            }
        },
        {
            "type": "Feature",
            "geometry": {
                "type": "Point",
                "coordinates": [-0.0907, 51.5104]
            },
            "properties": {
                "id": "curated/cannon-street-station",
                "name": "Cannon Street station"
            }
        },
        {
            "type": "Feature",
            "geometry": {
                "type": "Point",
                "coordinates": [-0.111, 51.518]
            },
            "properties": {
                "id": "curated/chancery-lane-tube-station",
                "name": "Chancery Lane tube station"
            }
        },
        {
            "type": "Feature",
            "geometry": {
                "type": "Point",
                "coordinates": [-0.125, 51.508]
            },
            "properties": {
                "id": "curated/charing-cross-railway-station",
                "name": "Charing Cross railway station"
            }
        },
        {
            "type": "Feature",
            "geometry": {
                "type": "Point",
                "coordinates": [-0.12472222, 51.50805556]
            },
            "properties": {
                "id": "curated/charing-cross-tube-station",
                "name": "Charing Cross tube station"
            }
        },
        {
            "type": "Feature",
            "geometry": {
                "type": "Point",
                "coordinates": [-0.1037, 51.5163]
            },
            "properties": {
                "id": "curated/city-thameslink-railway-station",
                "name": "City Thameslink railway station"
            }
        },
        {
            "type": "Feature",
            "geometry": {
                "type": "Point",
                "coordinates": [-0.1243, 51.513]
            },
            "properties": {
                "id": "curated/covent-garden-tube-station",
                "name": "Covent Garden tube station"
            }
        },
        {
            "type": "Feature",
            "geometry": {
                "type": "Point",
                "coordinates": [-0.1947, 51.4913]
            },
            "properties": {
                "id": "curated/earl-s-court-tube-station",
                "name": "Earl's Court tube station"
            }
        },
        {
            "type": "Feature",
            "geometry": {
                "type": "Point",
                "coordinates": [-0.170278, 51.520278]
            },
            "properties": {
                "id": "curated/edgware-road-tube-station-bakerloo-line",
                "name": "Edgware Road tube station (Bakerloo line)"
            }
        },
        {
            "type": "Feature",
            "geometry": {
                "type": "Point",
                "coordinates": [-0.167778, 51.52]
            },
            "properties": {
                "id": "curated/edgware-road-tube-station-circle-district-and-hammersmith-city-lines",
                "name": "Edgware Road tube station (Circle, District and Hammersmith & City lines)"
            }
        },
        {
            "type": "Feature",
            "geometry": {
                "type": "Point",
                "coordinates": [-0.0998, 51.4944]
            },
            "properties": {
                "id": "curated/elephant-castle-railway-station",
                "name": "Elephant & Castle railway station"
            }
        },
        {
            "type": "Feature",
            "geometry": {
                "type": "Point",
                "coordinates": [-0.0997, 51.4944]
            },
            "properties": {
                "id": "curated/elephant-castle-tube-station",
                "name": "Elephant & Castle tube station"
            }
        },
        {
            "type": "Feature",
            "geometry": {
                "type": "Point",
                "coordinates": [-0.122, 51.507]
            },
            "properties": {
                "id": "curated/embankment-tube-station",
                "name": "Embankment tube station"
            }
        },
        {
            "type": "Feature",
            "geometry": {
                "type": "Point",
                "coordinates": [-0.1331, 51.5284]
            },
            "properties": {
                "id": "curated/euston-railway-station",
                "name": "Euston railway station"
            }
        },
        {
            "type": "Feature",
            "geometry": {
                "type": "Point",
                "coordinates": [-0.1358, 51.5258]
            },
            "properties": {
                "id": "curated/euston-square-tube-station",
                "name": "Euston Square tube station"
            }
        },
        {
            "type": "Feature",
            "geometry": {
                "type": "Point",
                "coordinates": [-0.1331, 51.5284]
            },
            "properties": {
                "id": "curated/euston-tube-station",
                "name": "Euston tube station"
            }
        },
        {
            "type": "Feature",
            "geometry": {
                "type": "Point",
                "coordinates": [-0.105, 51.52055556]
            },
            "properties": {
                "id": "curated/farringdon-station",
                "name": "Farringdon station"
            }
        },
        {
            "type": "Feature",
            "geometry": {
                "type": "Point",
                "coordinates": [-0.07881, 51.51167]
            },
            "properties": {
                "id": "curated/fenchurch-street-railway-station",
                "name": "Fenchurch Street railway station"
            }
        },
        {
            "type": "Feature",
            "geometry": {
                "type": "Point",
                "coordinates": [-0.183, 51.4947]
            },
            "properties": {
                "id": "curated/gloucester-road-tube-station",
                "name": "Gloucester Road tube station"
            }
        },
        {
            "type": "Feature",
            "geometry": {
                "type": "Point",
                "coordinates": [-0.13444, 51.52083]
            },
            "properties": {
                "id": "curated/goodge-street-tube-station",
                "name": "Goodge Street tube station"
            }
        },
        {
            "type": "Feature",
            "geometry": {
                "type": "Point",
                "coordinates": [-0.1438, 51.5238]
            },
            "properties": {
                "id": "curated/great-portland-street-tube-station",
                "name": "Great Portland Street tube station"
            }
        },
        {
            "type": "Feature",
            "geometry": {
                "type": "Point",
                "coordinates": [-0.1428, 51.5067]
            },
            "properties": {
                "id": "curated/green-park-tube-station",
                "name": "Green Park tube station"
            }
        },
        {
            "type": "Feature",
            "geometry": {
                "type": "Point",
                "coordinates": [-0.1925, 51.5008]
            },
            "properties": {
                "id": "curated/high-street-kensington-tube-station",
                "name": "High Street Kensington tube station"
            }
        },
        {
            "type": "Feature",
            "geometry": {
                "type": "Point",
                "coordinates": [-0.1201, 51.5174]
            },
            "properties": {
                "id": "curated/holborn-tube-station",
                "name": "Holborn tube station"
            }
        },
        {
            "type": "Feature",
            "geometry": {
                "type": "Point",
                "coordinates": [-0.0754, 51.5318]
            },
            "properties": {
                "id": "curated/hoxton-railway-station",
                "name": "Hoxton railway station"
            }
        },
        {
            "type": "Feature",
            "geometry": {
                "type": "Point",
                "coordinates": [-0.15277778, 51.50277778]
            },
            "properties": {
                "id": "curated/hyde-park-corner-tube-station",
                "name": "Hyde Park Corner tube station"
            }
        },
        {
            "type": "Feature",
            "geometry": {
                "type": "Point",
                "coordinates": [-0.10566667, 51.48827778]
            },
            "properties": {
                "id": "curated/kennington-tube-station",
                "name": "Kennington tube station"
            }
        },
        {
            "type": "Feature",
            "geometry": {
                "type": "Point",
                "coordinates": [-0.2108, 51.4986]
            },
            "properties": {
                "id": "curated/kensington-olympia-station",
                "name": "Kensington (Olympia) station"
            }
        },
        {
            "type": "Feature",
            "geometry": {
                "type": "Point",
                "coordinates": [-0.1241, 51.5302]
            },
            "properties": {
                "id": "curated/king-s-cross-st-pancras-tube-station",
                "name": "King's Cross St Pancras tube station"
            }
        },
        {
            "type": "Feature",
            "geometry": {
                "type": "Point",
                "coordinates": [-0.169, 51.4875]
            },
            "properties": {
                "id": "curated/king-s-road-chelsea-railway-station",
                "name": "King's Road Chelsea railway station"
            }
        },
        {
            "type": "Feature",
            "geometry": {
                "type": "Point",
                "coordinates": [-0.16083333, 51.50166667]
            },
            "properties": {
                "id": "curated/knightsbridge-tube-station",
                "name": "Knightsbridge tube station"
            }
        },
        {
            "type": "Feature",
            "geometry": {
                "type": "Point",
                "coordinates": [-0.1118, 51.499]
            },
            "properties": {
                "id": "curated/lambeth-north-tube-station",
                "name": "Lambeth North tube station"
            }
        },
        {
            "type": "Feature",
            "geometry": {
                "type": "Point",
                "coordinates": [-0.175472, 51.51175]
            },
            "properties": {
                "id": "curated/lancaster-gate-tube-station",
                "name": "Lancaster Gate tube station"
            }
        },
        {
            "type": "Feature",
            "geometry": {
                "type": "Point",
                "coordinates": [-0.1281, 51.5114]
            },
            "properties": {
                "id": "curated/leicester-square-tube-station",
                "name": "Leicester Square tube station"
            }
        },
        {
            "type": "Feature",
            "geometry": {
                "type": "Point",
                "coordinates": [-0.0813, 51.5186]
            },
            "properties": {
                "id": "curated/liverpool-street-station",
                "name": "Liverpool Street station"
            }
        },
        {
            "type": "Feature",
            "geometry": {
                "type": "Point",
                "coordinates": [-0.0857, 51.5044]
            },
            "properties": {
                "id": "curated/london-bridge-station",
                "name": "London Bridge station"
            }
        },
        {
            "type": "Feature",
            "geometry": {
                "type": "Point",
                "coordinates": [-0.1233, 51.531]
            },
            "properties": {
                "id": "curated/london-king-s-cross-railway-station",
                "name": "London King's Cross railway station"
            }
        },
        {
            "type": "Feature",
            "geometry": {
                "type": "Point",
                "coordinates": [-0.1774, 51.5173]
            },
            "properties": {
                "id": "curated/london-paddington-station",
                "name": "London Paddington station"
            }
        },
        {
            "type": "Feature",
            "geometry": {
                "type": "Point",
                "coordinates": [-0.1441, 51.4952]
            },
            "properties": {
                "id": "curated/london-victoria-station",
                "name": "London Victoria station"
            }
        },
        {
            "type": "Feature",
            "geometry": {
                "type": "Point",
                "coordinates": [-0.1132, 51.5031]
            },
            "properties": {
                "id": "curated/london-waterloo-station",
                "name": "London Waterloo station"
            }
        },
        {
            "type": "Feature",
            "geometry": {
                "type": "Point",
                "coordinates": [-0.0941, 51.5122]
            },
            "properties": {
                "id": "curated/mansion-house-tube-station",
                "name": "Mansion House tube station"
            }
        },
        {
            "type": "Feature",
            "geometry": {
                "type": "Point",
                "coordinates": [-0.15833333, 51.51361111]
            },
            "properties": {
                "id": "curated/marble-arch-tube-station",
                "name": "Marble Arch tube station"
            }
        },
        {
            "type": "Feature",
            "geometry": {
                "type": "Point",
                "coordinates": [-0.1634, 51.5223]
            },
            "properties": {
                "id": "curated/marylebone-station",
                "name": "Marylebone station"
            }
        },
        {
            "type": "Feature",
            "geometry": {
                "type": "Point",
                "coordinates": [-0.0886, 51.5186]
            },
            "properties": {
                "id": "curated/moorgate-station",
                "name": "Moorgate station"
            }
        },
        {
            "type": "Feature",
            "geometry": {
                "type": "Point",
                "coordinates": [-0.1285, 51.48]
            },
            "properties": {
                "id": "curated/nine-elms-tube-station",
                "name": "Nine Elms tube station"
            }
        },
        {
            "type": "Feature",
            "geometry": {
                "type": "Point",
                "coordinates": [-0.197, 51.509]
            },
            "properties": {
                "id": "curated/notting-hill-gate-tube-station",
                "name": "Notting Hill Gate tube station"
            }
        },
        {
            "type": "Feature",
            "geometry": {
                "type": "Point",
                "coordinates": [-0.0871, 51.5258]
            },
            "properties": {
                "id": "curated/old-street-station",
                "name": "Old Street station"
            }
        },
        {
            "type": "Feature",
            "geometry": {
                "type": "Point",
                "coordinates": [-0.1416, 51.5152]
            },
            "properties": {
                "id": "curated/oxford-circus-tube-station",
                "name": "Oxford Circus tube station"
            }
        },
        {
            "type": "Feature",
            "geometry": {
                "type": "Point",
                "coordinates": [-0.1754, 51.5154]
            },
            "properties": {
                "id": "curated/paddington-tube-station-bakerloo-circle-and-district-lines",
                "name": "Paddington tube station (Bakerloo, Circle and District lines)"
            }
        },
        {
            "type": "Feature",
            "geometry": {
                "type": "Point",
                "coordinates": [-0.1785, 51.5186]
            },
            "properties": {
                "id": "curated/paddington-tube-station-circle-and-hammersmith-city-lines",
                "name": "Paddington tube station (Circle and Hammersmith & City lines)"
            }
        },
        {
            "type": "Feature",
            "geometry": {
                "type": "Point",
                "coordinates": [-0.134, 51.5101]
            },
            "properties": {
                "id": "curated/piccadilly-circus-tube-station",
                "name": "Piccadilly Circus tube station"
            }
        },
        {
            "type": "Feature",
            "geometry": {
                "type": "Point",
                "coordinates": [-0.13361111, 51.48916667]
            },
            "properties": {
                "id": "curated/pimlico-tube-station",
                "name": "Pimlico tube station"
            }
        },
        {
            "type": "Feature",
            "geometry": {
                "type": "Point",
                "coordinates": [-0.18722222, 51.51044444]
            },
            "properties": {
                "id": "curated/queensway-tube-station",
                "name": "Queensway tube station"
            }
        },
        {
            "type": "Feature",
            "geometry": {
                "type": "Point",
                "coordinates": [-0.1464, 51.5235]
            },
            "properties": {
                "id": "curated/regent-s-park-tube-station",
                "name": "Regent's Park tube station"
            }
        },
        {
            "type": "Feature",
            "geometry": {
                "type": "Point",
                "coordinates": [-0.12444444, 51.52305556]
            },
            "properties": {
                "id": "curated/russell-square-tube-station",
                "name": "Russell Square tube station"
            }
        },
        {
            "type": "Feature",
            "geometry": {
                "type": "Point",
                "coordinates": [-0.07524, 51.52326]
            },
            "properties": {
                "id": "curated/shoreditch-high-street-railway-station",
                "name": "Shoreditch High Street railway station"
            }
        },
        {
            "type": "Feature",
            "geometry": {
                "type": "Point",
                "coordinates": [-0.1566, 51.4925]
            },
            "properties": {
                "id": "curated/sloane-square-tube-station",
                "name": "Sloane Square tube station"
            }
        },
        {
            "type": "Feature",
            "geometry": {
                "type": "Point",
                "coordinates": [-0.1738, 51.4941]
            },
            "properties": {
                "id": "curated/south-kensington-tube-station",
                "name": "South Kensington tube station"
            }
        },
        {
            "type": "Feature",
            "geometry": {
                "type": "Point",
                "coordinates": [-0.105, 51.5039]
            },
            "properties": {
                "id": "curated/southwark-tube-station",
                "name": "Southwark tube station"
            }
        },
        {
            "type": "Feature",
            "geometry": {
                "type": "Point",
                "coordinates": [-0.1344, 51.4994]
            },
            "properties": {
                "id": "curated/st-james-s-park-tube-station",
                "name": "St James's Park tube station"
            }
        },
        {
            "type": "Feature",
            "geometry": {
                "type": "Point",
                "coordinates": [-0.12527778, 51.53]
            },
            "properties": {
                "id": "curated/st-pancras-railway-station",
                "name": "St Pancras railway station"
            }
        },
        {
            "type": "Feature",
            "geometry": {
                "type": "Point",
                "coordinates": [-0.0975, 51.5148]
            },
            "properties": {
                "id": "curated/st-paul-s-tube-station",
                "name": "St Paul's tube station"
            }
        },
        {
            "type": "Feature",
            "geometry": {
                "type": "Point",
                "coordinates": [-0.1144, 51.5111]
            },
            "properties": {
                "id": "curated/temple-tube-station",
                "name": "Temple tube station"
            }
        },
        {
            "type": "Feature",
            "geometry": {
                "type": "Point",
                "coordinates": [-0.1309, 51.5162]
            },
            "properties": {
                "id": "curated/tottenham-court-road-station",
                "name": "Tottenham Court Road station"
            }
        },
        {
            "type": "Feature",
            "geometry": {
                "type": "Point",
                "coordinates": [-0.0746, 51.5104]
            },
            "properties": {
                "id": "curated/tower-gateway-dlr-station",
                "name": "Tower Gateway DLR station"
            }
        },
        {
            "type": "Feature",
            "geometry": {
                "type": "Point",
                "coordinates": [-0.076, 51.51]
            },
            "properties": {
                "id": "curated/tower-hill-tube-station",
                "name": "Tower Hill tube station"
            }
        },
        {
            "type": "Feature",
            "geometry": {
                "type": "Point",
                "coordinates": [-0.1229, 51.4854]
            },
            "properties": {
                "id": "curated/vauxhall-station",
                "name": "Vauxhall station"
            }
        },
        {
            "type": "Feature",
            "geometry": {
                "type": "Point",
                "coordinates": [-0.1436, 51.4956]
            },
            "properties": {
                "id": "curated/victoria-tube-station",
                "name": "Victoria tube station"
            }
        },
        {
            "type": "Feature",
            "geometry": {
                "type": "Point",
                "coordinates": [-0.13833, 51.52472]
            },
            "properties": {
                "id": "curated/warren-street-tube-station",
                "name": "Warren Street tube station"
            }
        },
        {
            "type": "Feature",
            "geometry": {
                "type": "Point",
                "coordinates": [-0.111, 51.5037]
            },
            "properties": {
                "id": "curated/waterloo-east-railway-station",
                "name": "Waterloo East railway station"
            }
        },
        {
            "type": "Feature",
            "geometry": {
                "type": "Point",
                "coordinates": [-0.113, 51.5025]
            },
            "properties": {
                "id": "curated/waterloo-tube-station",
                "name": "Waterloo tube station"
            }
        },
        {
            "type": "Feature",
            "geometry": {
                "type": "Point",
                "coordinates": [-0.125, 51.501]
            },
            "properties": {
                "id": "curated/westminster-tube-station",
                "name": "Westminster tube station"
            }
        }
    ]
}
